,ID,Isconfidential,ProjectName,Street,City,State,Zipcode,Country,LEEDSystemVersionDisplayName,Sistema,PointsAchieved,CertLevel,CertDate,Mes certificación,Año certificación,IsCertified,OwnerTypes,GrossSqFoot,mt2,TotalPropArea,ProjectTypes,Categoría,OwnerOrganization,RegistrationDate,Mes registro,Año registro,Pais,direccion,lat,lon
0,10003695,No,TITANIUM - LA PORTADA,AV. ISIDORA GOYENECHEA  2800,SANTIAGO DE CHILE, ,11111,CL,LEED-CS 1.0 Pilot,BD+C,40.0,Gold,2010-12-10,12.0,2010.0,Yes,Profit Org.,8900000000,,720000000.0,Commercial Office,Comercial,INMOBILIARIA TITANIUM,2006-03-03,3,2006,Chile,"AV. ISIDORA GOYENECHEA  2800, SANTIAGO DE CHILE,  , Chile",-33.4136216,-70.6035582
1,10039434,No,CLINICA LAS CONDES NEW H3 BUILDING,LO FONTECILLA  441,SANTIAGO, ,11111,CL,LEED-NC 2.2,BD+C,,,,,,No,Profit Org.,3254800000,,,Health Care,Público,INMOBILIARIA CLC S.A.,2006-12-13,12,2006,Chile,"LO FONTECILLA  441, SANTIAGO,  , Chile",-33.3840941,-70.5301508
2,10151532,No,HOTEL HANGAROA,Avenida Pont  s/n,Hangaroa - Easter Island, ,none,CL,LEED-NC 2.2,BD+C,,,,,,No,Profit Org.,1150000000,,,"Restaurant, Hotel/Resort",Comercial, ,2007-11-02,11,2007,Chile,"Avenida Pont  s/n, Hangaroa - Easter Island,  , Chile",-27.15257,-109.43649
3,10163607,No,Homecenter SODIMAC Copiapo,Panamericana Acceso Sur 140,Copiapo, ,11111,CL,LEED-NC 2.2,BD+C,34.0,Silver,2009-08-24,8.0,2009.0,Yes,Profit Org.,1106550000,,2653630000.0,Retail,Comercial, ,2007-12-03,12,2007,Chile,"Panamericana Acceso Sur 140, Copiapo,  , Chile",-27.80712,-70.50437
4,10231029,No,EDIFICIO COSTANERA COSAS,Almirante Pastene Street No. 333 and 311,"Providencia, Santiago", ,7500506,CL,LEED-CS 2.0,BD+C,34.0,Gold,2010-10-21,10.0,2010.0,Yes,Profit Org.,700510000,,176140000.0,Commercial Office,Comercial,TiempoPresente Ltda.,2008-04-30,4,2008,Chile,"Almirante Pastene Street No. 333 and 311, Providencia, Santiago,  , Chile",-33.51499,-70.56055
